{
  "tournaments": [
    {
      "id": "820883",
      "name": "Extraordinaire Arcade Q4 Tournament Series 2025",
      "lat": 34.1375879,
      "lng": -117.2846672,
      "city": "San Bernardino",
      "state": "CA",
      "venue": null,
      "address": "2347 N Sierra Way, San Bernardino, CA 92405, USA",
      "attendees": 9,
      "date": 1757883600,
      "slug": "tournament/extraordinaire-arcade-q4-tournament-series-2025"
    },
    {
      "id": "821884",
      "name": "LIMIT/BREAK #32: CHOSEN ANEW",
      "lat": 33.9541483,
      "lng": -118.0990153,
      "city": "Pico Rivera",
      "state": "CA",
      "venue": null,
      "address": "9549 Telegraph Rd, Pico Rivera, CA 90660, USA",
      "attendees": 3,
      "date": 1757735100,
      "slug": "BreakLimit"
    },
    {
      "id": "818678",
      "name": "Wizard Nite Smash #2",
      "lat": 34.0876503,
      "lng": -117.9446938,
      "city": "West Covina",
      "state": "CA",
      "venue": null,
      "address": "1931 W Badillo St, West Covina, CA 91790, USA",
      "attendees": 1,
      "date": 1757289600,
      "slug": "tournament/wizard-nite-smash-2-1"
    },
    {
      "id": "817537",
      "name": "Eye of the Storm #13 FGC at Mayfair",
      "lat": 33.8642222,
      "lng": -118.1161944,
      "city": "Lakewood",
      "state": "CA",
      "venue": null,
      "address": "6000 Woodruff Ave, Lakewood, CA 90713, USA",
      "attendees": 23,
      "date": 1757178000,
      "slug": "EyeOfTheStormMHS"
    },
    {
      "id": "823130",
      "name": "Wild Smash Wednesday #153",
      "lat": 33.954221,
      "lng": -118.0991163,
      "city": "Pico Rivera",
      "state": "CA",
      "venue": null,
      "address": "9549 Telegraph Rd, Pico Rivera, CA 90660, USA",
      "attendees": 0,
      "date": 1756956600,
      "slug": "WildSmash"
    },
    {
      "id": "823430",
      "name": "Coopers Irvine SSBU #131",
      "lat": 33.6888762,
      "lng": -117.8338898,
      "city": "Irvine",
      "state": "CA",
      "venue": null,
      "address": "2700 Alton Pkwy #237, Irvine, CA 92606, USA",
      "attendees": 0,
      "date": 1756951200,
      "slug": "ces"
    },
    {
      "id": "820521",
      "name": "Smash Wednesday #39 Casual Smash Ultimate w/ Drinking Rules",
      "lat": 34.1640823,
      "lng": -118.3738382,
      "city": "Los Angeles",
      "state": "CA",
      "venue": null,
      "address": "5140 Lankershim Blvd, North Hollywood, CA 91601, USA",
      "attendees": 0,
      "date": 1756951200,
      "slug": "brews-bros-39"
    },
    {
      "id": "822773",
      "name": "LAN Hero Monday #84",
      "lat": 34.1039123,
      "lng": -117.9410279,
      "city": "Irwindale",
      "state": "CA",
      "venue": null,
      "address": "15562 Arrow Hwy, Irwindale, CA 91706, USA",
      "attendees": 1,
      "date": 1756778400,
      "slug": "lanhero"
    },
    {
      "id": "823094",
      "name": "Soul Melter Smash #62 - Powered by Gamer LatAm",
      "lat": 33.5732957,
      "lng": -117.6748808,
      "city": "Laguna Hills",
      "state": "CA",
      "venue": null,
      "address": "26072 Merit Cir #125, Laguna Hills, CA 92653, USA",
      "attendees": 0,
      "date": 1756773000,
      "slug": "soulmeltersmash"
    },
    {
      "id": "822733",
      "name": "Claremont Clash #99.5",
      "lat": 34.1022065,
      "lng": -117.7065409,
      "city": "Claremont",
      "state": "CA",
      "venue": null,
      "address": "Bauer Center, 500 E 9th St, Claremont, CA 91711, USA",
      "attendees": 4,
      "date": 1756692000,
      "slug": "tournament/claremont-clash-99-5"
    },
    {
      "id": "820537",
      "name": "Stein Sunday! Smash tournament!",
      "lat": 33.9720443,
      "lng": -118.0701549,
      "city": "Whittier",
      "state": "CA",
      "venue": null,
      "address": "11319 Washington Blvd, Whittier, CA 90606, USA",
      "attendees": 0,
      "date": 1756688400,
      "slug": "Stein"
    },
    {
      "id": "821492",
      "name": "Do or Di #13 - $100 Pot Bonus",
      "lat": 34.4697288,
      "lng": -117.2928249,
      "city": "Hesperia",
      "state": "CA",
      "venue": null,
      "address": "12052 Hesperia Rd, Hesperia, CA 92345, USA",
      "attendees": 8,
      "date": 1756674000,
      "slug": "tournament/do-or-di-13-100-pot-bonus"
    },
    {
      "id": "823408",
      "name": "Port Town Beatdown #9",
      "lat": 33.7376104,
      "lng": -118.2833215,
      "city": "Los Angeles",
      "state": "CA",
      "venue": null,
      "address": "285 W 7th St, San Pedro, CA 90731, USA",
      "attendees": 1,
      "date": 1756603800,
      "slug": "tournament/port-town-beatdown-9"
    },
    {
      "id": "816694",
      "name": "TRY-HARDS & Cal TERNA @ GAME REALMS",
      "lat": 34.1746046,
      "lng": -118.3172886,
      "city": "Burbank",
      "state": "CA",
      "venue": null,
      "address": "137 N Victory Blvd, Burbank, CA 91502, USA",
      "attendees": 37,
      "date": 1756585800,
      "slug": "thgr11"
    },
    {
      "id": "816701",
      "name": "VIKING VERSUS",
      "lat": 34.2133604,
      "lng": -118.2434798,
      "city": "Glendale",
      "state": "CA",
      "venue": null,
      "address": "2946 Honolulu Ave, Glendale, CA 91214, USA",
      "attendees": 7,
      "date": 1756584000,
      "slug": "tournament/viking-versus"
    },
    {
      "id": "815637",
      "name": "Gameplay Palmdale",
      "lat": 34.5790982,
      "lng": -118.0833706,
      "city": "Palmdale",
      "state": "CA",
      "venue": null,
      "address": "2520 E Palmdale Blvd g 22, Palmdale, CA 93550, USA",
      "attendees": 3,
      "date": 1756580400,
      "slug": "gameplaypalmdale"
    },
    {
      "id": "813854",
      "name": "THE SHOP SMASH SHOWDOWN",
      "lat": 34.0575944,
      "lng": -117.7519535,
      "city": "Pomona",
      "state": "CA",
      "venue": null,
      "address": "266 W 2nd St, Pomona, CA 91766, USA",
      "attendees": 11,
      "date": 1756526400,
      "slug": "tournament/the-shop-smash-showdown-13"
    },
    {
      "id": "823086",
      "name": "SMASHUP FRIDAY #1",
      "lat": 34.1039123,
      "lng": -117.9410279,
      "city": "Irwindale",
      "state": "CA",
      "venue": null,
      "address": "15562 Arrow Hwy, Irwindale, CA 91706, USA",
      "attendees": 11,
      "date": 1756519200,
      "slug": "smashfriday"
    },
    {
      "id": "815985",
      "name": "Game Lab Smash #188 (CRT Melee & Mario Strikers)",
      "lat": 33.9842971,
      "lng": -117.3750336,
      "city": "Riverside",
      "state": "CA",
      "venue": null,
      "address": "3633 Market Street, Riverside, CA 92501, USA",
      "attendees": 19,
      "date": 1756517400,
      "slug": "GLS188"
    },
    {
      "id": "822463",
      "name": "SSBU @ CPP F25 #1",
      "lat": 34.0585684,
      "lng": -117.8200304,
      "city": "Pomona",
      "state": "CA",
      "venue": null,
      "address": "3801 W Temple Ave, Pomona, CA 91768, USA",
      "attendees": 13,
      "date": 1756515600,
      "slug": "tournament/ssbu-cpp-f25-1"
    },
    {
      "id": "822855",
      "name": "Runback Thursdays  @ BYOG !!",
      "lat": 34.0361953,
      "lng": -118.1906183,
      "city": "Los Angeles",
      "state": "CA",
      "venue": null,
      "address": "3555 1st St, Los Angeles, CA 90063, USA",
      "attendees": 20,
      "date": 1756432800,
      "slug": "RBK"
    },
    {
      "id": "823312",
      "name": "Tip the Scales 132",
      "lat": 34.21625,
      "lng": -119.039442,
      "city": "Camarillo",
      "state": "CA",
      "venue": null,
      "address": "2270 Ventura Blvd, Camarillo, CA 93010, USA",
      "attendees": 7,
      "date": 1756432800,
      "slug": "tournament/tip-the-scales-132"
    },
    {
      "id": "820772",
      "name": "Wild Smash Wednesday #152",
      "lat": 33.954221,
      "lng": -118.0991163,
      "city": "Pico Rivera",
      "state": "CA",
      "venue": null,
      "address": "9549 Telegraph Rd, Pico Rivera, CA 90660, USA",
      "attendees": 29,
      "date": 1756351800,
      "slug": "WildSmash-152"
    },
    {
      "id": "821016",
      "name": "Coopers Irvine SSBU #130",
      "lat": 33.6888762,
      "lng": -117.8338898,
      "city": "Irvine",
      "state": "CA",
      "venue": null,
      "address": "2700 Alton Pkwy #237, Irvine, CA 92606, USA",
      "attendees": 16,
      "date": 1756346400,
      "slug": "tournament/coopers-irvine-ssbu-130"
    },
    {
      "id": "820875",
      "name": "LAN Hero Monday #83",
      "lat": 34.1039123,
      "lng": -117.9410279,
      "city": "Irwindale",
      "state": "CA",
      "venue": null,
      "address": "15562 Arrow Hwy, Irwindale, CA 91706, USA",
      "attendees": 10,
      "date": 1756173600,
      "slug": "tournament/lan-hero-monday-83"
    },
    {
      "id": "815557",
      "name": "GGC X Trademark #2",
      "lat": 33.7829358,
      "lng": -118.1902976,
      "city": "Long Beach",
      "state": "CA",
      "venue": null,
      "address": "233 E Anaheim St, Long Beach, CA 90813, USA",
      "attendees": 20,
      "date": 1756069200,
      "slug": "tournament/ggc-x-trademark-2"
    },
    {
      "id": "820379",
      "name": "Port Town Beatdown #8",
      "lat": 33.7376104,
      "lng": -118.2833215,
      "city": "Los Angeles",
      "state": "CA",
      "venue": null,
      "address": "285 W 7th St, San Pedro, CA 90731, USA",
      "attendees": 8,
      "date": 1755999000,
      "slug": "tournament/port-town-beatdown-8"
    },
    {
      "id": "815748",
      "name": "Jabroni Jamboree 6 (Jabroni Returns)($300 Pot Bonus)",
      "lat": 33.9842971,
      "lng": -117.3750336,
      "city": "Riverside",
      "state": "CA",
      "venue": null,
      "address": "3633 Market Street, Riverside, CA 92501, USA",
      "attendees": 16,
      "date": 1755986400,
      "slug": "JJ6"
    },
    {
      "id": "820781",
      "name": "LIMIT/BREAK #31: Fresh Start, New Day",
      "lat": 33.9541483,
      "lng": -118.0990153,
      "city": "Pico Rivera",
      "state": "CA",
      "venue": null,
      "address": "9549 Telegraph Rd, Pico Rivera, CA 90660, USA",
      "attendees": 29,
      "date": 1755918000,
      "slug": "tournament/limit-break-31-fresh-start-new-day"
    },
    {
      "id": "815981",
      "name": "Game Lab Smash #187",
      "lat": 33.9842971,
      "lng": -117.3750336,
      "city": "Riverside",
      "state": "CA",
      "venue": null,
      "address": "3633 Market Street, Riverside, CA 92501, USA",
      "attendees": 27,
      "date": 1755912600,
      "slug": "GLS187"
    },
    {
      "id": "817153",
      "name": "Smash @ The Vault XI",
      "lat": 34.0545471,
      "lng": -117.1817943,
      "city": "Redlands",
      "state": "CA",
      "venue": null,
      "address": "20 E Vine St, Redlands, CA 92373, USA",
      "attendees": 17,
      "date": 1755831600,
      "slug": "tournament/smash-the-vault-xi"
    },
    {
      "id": "820485",
      "name": "Runback Thursday #26",
      "lat": 34.0361953,
      "lng": -118.1906183,
      "city": "Los Angeles",
      "state": "CA",
      "venue": null,
      "address": "3555 1st St, Los Angeles, CA 90063, USA",
      "attendees": 15,
      "date": 1755828000,
      "slug": "RBKT"
    },
    {
      "id": "818420",
      "name": "Wild Smash Wednesday #151",
      "lat": 33.954221,
      "lng": -118.0991163,
      "city": "Pico Rivera",
      "state": "CA",
      "venue": null,
      "address": "9549 Telegraph Rd, Pico Rivera, CA 90660, USA",
      "attendees": 57,
      "date": 1755747000,
      "slug": "tournament/wild-smash-wednesday-151"
    },
    {
      "id": "818716",
      "name": "Coopers Irvine SSBU #129",
      "lat": 33.6888762,
      "lng": -117.8338898,
      "city": "Irvine",
      "state": "CA",
      "venue": null,
      "address": "2700 Alton Pkwy #237, Irvine, CA 92606, USA",
      "attendees": 24,
      "date": 1755741600,
      "slug": "tournament/coopers-irvine-ssbu-129"
    },
    {
      "id": "819269",
      "name": "Try-Hards @ Red Engine: Brew Battles #16",
      "lat": 34.3963519,
      "lng": -118.9207156,
      "city": "Fillmore",
      "state": "CA",
      "venue": null,
      "address": "803 Ventura St, Fillmore, CA 93015, USA",
      "attendees": 7,
      "date": 1755738900,
      "slug": "thre16"
    },
    {
      "id": "815596",
      "name": "Shark Tank #159: Fist Bump the World",
      "lat": 34.1209904,
      "lng": -118.1074672,
      "city": "San Marino",
      "state": "CA",
      "venue": null,
      "address": "2124 Huntington Dr, San Marino, CA 91108, USA",
      "attendees": 46,
      "date": 1755653400,
      "slug": "sharktank"
    },
    {
      "id": "818301",
      "name": "LAN_Hero Monday at The Barracks #82 Under New Management",
      "lat": 34.1039123,
      "lng": -117.9410279,
      "city": "Irwindale",
      "state": "CA",
      "venue": null,
      "address": "15562 Arrow Hwy, Irwindale, CA 91706, USA",
      "attendees": 12,
      "date": 1755500400,
      "slug": "tournament/lan_hero-monday-at-the-barracks-82-under-new-management"
    },
    {
      "id": "815999",
      "name": "Super Game Lab Smash #10 (Crew Battle?)",
      "lat": 33.9842971,
      "lng": -117.3750336,
      "city": "Riverside",
      "state": "CA",
      "venue": null,
      "address": "3633 Market Street, Riverside, CA 92501, USA",
      "attendees": 90,
      "date": 1755381600,
      "slug": "SGLS10"
    },
    {
      "id": "815974",
      "name": "Game Lab Smash #186 (Ft. Melee & Smash 4)",
      "lat": 33.9842971,
      "lng": -117.3750336,
      "city": "Riverside",
      "state": "CA",
      "venue": null,
      "address": "3633 Market Street, Riverside, CA 92501, USA",
      "attendees": 25,
      "date": 1755307800,
      "slug": "GLS186"
    },
    {
      "id": "817842",
      "name": "Runback Thursday\u2019s #25",
      "lat": 34.0361953,
      "lng": -118.1906183,
      "city": "Los Angeles",
      "state": "CA",
      "venue": null,
      "address": "3555 1st St, Los Angeles, CA 90063, USA",
      "attendees": 14,
      "date": 1755223200,
      "slug": "tournament/runback-thursday-s-25"
    },
    {
      "id": "818395",
      "name": "Tip The Scales 131",
      "lat": 34.21625,
      "lng": -119.039442,
      "city": "Camarillo",
      "state": "CA",
      "venue": null,
      "address": "2270 Ventura Blvd, Camarillo, CA 93010, USA",
      "attendees": 12,
      "date": 1755223200,
      "slug": "tournament/tip-the-scales-131"
    },
    {
      "id": "816118",
      "name": "Wild Smash Wednesday #150 - $150 in pot bonuses!",
      "lat": 33.954221,
      "lng": -118.0991163,
      "city": "Pico Rivera",
      "state": "CA",
      "venue": null,
      "address": "9549 Telegraph Rd, Pico Rivera, CA 90660, USA",
      "attendees": 43,
      "date": 1755142200,
      "slug": "tournament/wild-smash-wednesday-150-150-in-pot-bonuses"
    },
    {
      "id": "816274",
      "name": "Coopers Irvine SSBU #128",
      "lat": 33.6888762,
      "lng": -117.8338898,
      "city": "Irvine",
      "state": "CA",
      "venue": null,
      "address": "2700 Alton Pkwy #237, Irvine, CA 92606, USA",
      "attendees": 21,
      "date": 1755136800,
      "slug": "tournament/coopers-irvine-ssbu-128-1"
    },
    {
      "id": "815590",
      "name": "Shark Tank #158: International Waters",
      "lat": 34.1209904,
      "lng": -118.1074672,
      "city": "San Marino",
      "state": "CA",
      "venue": null,
      "address": "2124 Huntington Dr, San Marino, CA 91108, USA",
      "attendees": 35,
      "date": 1755048600,
      "slug": "tournament/shark-tank-158-international-waters"
    },
    {
      "id": "816056",
      "name": "LAN_Hero Mondays @ The Barracks (Ft. HylianDave) #81",
      "lat": 34.1039123,
      "lng": -117.9410279,
      "city": "Irwindale",
      "state": "CA",
      "venue": null,
      "address": "15562 Arrow Hwy, Irwindale, CA 91706, USA",
      "attendees": 28,
      "date": 1754964000,
      "slug": "LHM81"
    },
    {
      "id": "816360",
      "name": "Soul Melter Smash #61 - Powered by Gamer LatAm",
      "lat": 33.5732957,
      "lng": -117.6748808,
      "city": "Laguna Hills",
      "state": "CA",
      "venue": null,
      "address": "26072 Merit Cir #125, Laguna Hills, CA 92653, USA",
      "attendees": 22,
      "date": 1754958600,
      "slug": "tournament/soul-melter-smash-61-powered-by-gamer-latam"
    },
    {
      "id": "812010",
      "name": "Claremont Clash #99",
      "lat": 34.1055136,
      "lng": -117.7127297,
      "city": "Claremont",
      "state": "CA",
      "venue": null,
      "address": "201 Platt Blvd, Claremont, CA 91711, USA",
      "attendees": 5,
      "date": 1754875800,
      "slug": "tournament/claremont-clash-99"
    },
    {
      "id": "805252",
      "name": "Hero Invitational 2",
      "lat": 34.2182417,
      "lng": -118.4438562,
      "city": "Los Angeles",
      "state": "CA",
      "venue": null,
      "address": "8107 Tyrone Ave, Panorama City, CA 91402, USA",
      "attendees": 17,
      "date": 1754852400,
      "slug": "tournament/hero-invitational-2"
    },
    {
      "id": "815671",
      "name": "LIMIT/BREAK #30: \uff33\uff35\uff30\uff25\uff32\uff0f\uff2e\uff2f\uff36\uff21",
      "lat": 33.9731835,
      "lng": -118.0797009,
      "city": "Whittier",
      "state": "CA",
      "venue": null,
      "address": "8013 Pioneer Blvd, Whittier, CA 90606, USA",
      "attendees": 29,
      "date": 1754711100,
      "slug": "tournament/limit-break-30-1"
    },
    {
      "id": "815958",
      "name": "Game Lab Smash #185 (Road to Super GLS)",
      "lat": 33.9842971,
      "lng": -117.3750336,
      "city": "Riverside",
      "state": "CA",
      "venue": null,
      "address": "3633 Market Street, Riverside, CA 92501, USA",
      "attendees": 28,
      "date": 1754703000,
      "slug": "GLS185"
    }
  ],
  "summary": {
    "total": 50,
    "with_coordinates": 50,
    "missing_coordinates": 0,
    "bounds": {
      "north": 34.5790982,
      "south": 33.5732957,
      "east": -117.1817943,
      "west": -119.039442,
      "center": {
        "lat": 34.014448606,
        "lng": -117.96403210999999
      }
    }
  }
}